[
    {"code": "DOH", "name": "Hamad International Airport", "city": "Doha", "country": "Qatar", "lat": 25.2731, "lon": 51.6080, "size": "hub"},
    {"code": "DXB", "name": "Dubai International Airport", "city": "Dubai", "country": "UAE", "lat": 25.2532, "lon": 55.3657, "size": "hub"},
    {"code": "AUH", "name": "Abu Dhabi International Airport", "city": "Abu Dhabi", "country": "UAE", "lat": 24.4330, "lon": 54.6511, "size": "large"},
    {"code": "KWI", "name": "Kuwait International Airport", "city": "Kuwait City", "country": "Kuwait", "lat": 29.2267, "lon": 47.9689, "size": "medium"},
    {"code": "BAH", "name": "Bahrain International Airport", "city": "Manama", "country": "Bahrain", "lat": 26.2708, "lon": 50.6336, "size": "medium"},
    {"code": "RUH", "name": "King Khalid International Airport", "city": "Riyadh", "country": "Saudi Arabia", "lat": 24.9576, "lon": 46.6988, "size": "hub"},
    {"code": "JED", "name": "King Abdulaziz International Airport", "city": "Jeddah", "country": "Saudi Arabia", "lat": 21.6796, "lon": 39.1565, "size": "large"},
    {"code": "MCT", "name": "Muscat International Airport", "city": "Muscat", "country": "Oman", "lat": 23.5931, "lon": 58.2844, "size": "medium"},
    {"code": "CMB", "name": "Bandaranaike International Airport", "city": "Colombo", "country": "Sri Lanka", "lat": 7.1808, "lon": 79.8841, "size": "large"},
    {"code": "BOM", "name": "Chhatrapati Shivaji International Airport", "city": "Mumbai", "country": "India", "lat": 19.0896, "lon": 72.8656, "size": "hub"},
    {"code": "DEL", "name": "Indira Gandhi International Airport", "city": "New Delhi", "country": "India", "lat": 28.5562, "lon": 77.1000, "size": "hub"},
    {"code": "BLR", "name": "Kempegowda International Airport", "city": "Bangalore", "country": "India", "lat": 13.1986, "lon": 77.7066, "size": "large"},
    {"code": "MAA", "name": "Chennai International Airport", "city": "Chennai", "country": "India", "lat": 12.9941, "lon": 80.1709, "size": "large"},
    {"code": "HYD", "name": "Rajiv Gandhi International Airport", "city": "Hyderabad", "country": "India", "lat": 17.2403, "lon": 78.4294, "size": "large"},
    {"code": "CCU", "name": "Netaji Subhas Chandra Bose Airport", "city": "Kolkata", "country": "India", "lat": 22.6520, "lon": 88.4463, "size": "large"},
    {"code": "KHI", "name": "Jinnah International Airport", "city": "Karachi", "country": "Pakistan", "lat": 24.9008, "lon": 67.1681, "size": "large"},
    {"code": "ISB", "name": "Islamabad International Airport", "city": "Islamabad", "country": "Pakistan", "lat": 33.5607, "lon": 72.8558, "size": "medium"},
    {"code": "DAC", "name": "Hazrat Shahjalal International Airport", "city": "Dhaka", "country": "Bangladesh", "lat": 23.8433, "lon": 90.3978, "size": "large"},
    {"code": "KTM", "name": "Tribhuvan International Airport", "city": "Kathmandu", "country": "Nepal", "lat": 27.6966, "lon": 85.3591, "size": "medium"},
    {"code": "SIN", "name": "Singapore Changi Airport", "city": "Singapore", "country": "Singapore", "lat": 1.3644, "lon": 103.9915, "size": "hub"},
    {"code": "KUL", "name": "Kuala Lumpur International Airport", "city": "Kuala Lumpur", "country": "Malaysia", "lat": 2.7456, "lon": 101.7099, "size": "hub"},
    {"code": "BKK", "name": "Suvarnabhumi Airport", "city": "Bangkok", "country": "Thailand", "lat": 13.6900, "lon": 100.7501, "size": "hub"},
    {"code": "CGK", "name": "Soekarno-Hatta International Airport", "city": "Jakarta", "country": "Indonesia", "lat": -6.1256, "lon": 106.6559, "size": "hub"},
    {"code": "MNL", "name": "Ninoy Aquino International Airport", "city": "Manila", "country": "Philippines", "lat": 14.5086, "lon": 121.0197, "size": "large"},
    {"code": "SGN", "name": "Tan Son Nhat International Airport", "city": "Ho Chi Minh City", "country": "Vietnam", "lat": 10.8188, "lon": 106.6520, "size": "large"},
    {"code": "HAN", "name": "Noi Bai International Airport", "city": "Hanoi", "country": "Vietnam", "lat": 21.2212, "lon": 105.8072, "size": "large"},
    {"code": "PEK", "name": "Beijing Capital International Airport", "city": "Beijing", "country": "China", "lat": 40.0799, "lon": 116.6031, "size": "hub"},
    {"code": "PVG", "name": "Shanghai Pudong International Airport", "city": "Shanghai", "country": "China", "lat": 31.1434, "lon": 121.8052, "size": "hub"},
    {"code": "HKG", "name": "Hong Kong International Airport", "city": "Hong Kong", "country": "China", "lat": 22.3080, "lon": 113.9185, "size": "hub"},
    {"code": "ICN", "name": "Incheon International Airport", "city": "Seoul", "country": "South Korea", "lat": 37.4602, "lon": 126.4407, "size": "hub"},
    {"code": "NRT", "name": "Narita International Airport", "city": "Tokyo", "country": "Japan", "lat": 35.7720, "lon": 140.3929, "size": "hub"},
    {"code": "SYD", "name": "Sydney Kingsford Smith Airport", "city": "Sydney", "country": "Australia", "lat": -33.9399, "lon": 151.1753, "size": "hub"},
    {"code": "MEL", "name": "Melbourne Airport", "city": "Melbourne", "country": "Australia", "lat": -37.6690, "lon": 144.8410, "size": "large"},
    {"code": "LHR", "name": "London Heathrow Airport", "city": "London", "country": "UK", "lat": 51.4700, "lon": -0.4543, "size": "hub"},
    {"code": "CDG", "name": "Charles de Gaulle Airport", "city": "Paris", "country": "France", "lat": 49.0097, "lon": 2.5479, "size": "hub"},
    {"code": "FRA", "name": "Frankfurt Airport", "city": "Frankfurt", "country": "Germany", "lat": 50.0379, "lon": 8.5622, "size": "hub"},
    {"code": "AMS", "name": "Amsterdam Schiphol Airport", "city": "Amsterdam", "country": "Netherlands", "lat": 52.3086, "lon": 4.7639, "size": "hub"},
    {"code": "MAD", "name": "Adolfo Suarez Madrid Barajas Airport", "city": "Madrid", "country": "Spain", "lat": 40.4936, "lon": -3.5668, "size": "hub"},
    {"code": "FCO", "name": "Leonardo da Vinci International Airport", "city": "Rome", "country": "Italy", "lat": 41.8003, "lon": 12.2389, "size": "large"},
    {"code": "IST", "name": "Istanbul Airport", "city": "Istanbul", "country": "Turkey", "lat": 41.2608, "lon": 28.7418, "size": "hub"},
    {"code": "CAI", "name": "Cairo International Airport", "city": "Cairo", "country": "Egypt", "lat": 30.1219, "lon": 31.4056, "size": "large"},
    {"code": "NBO", "name": "Jomo Kenyatta International Airport", "city": "Nairobi", "country": "Kenya", "lat": -1.3192, "lon": 36.9275, "size": "large"},
    {"code": "JNB", "name": "O.R. Tambo International Airport", "city": "Johannesburg", "country": "South Africa", "lat": -26.1392, "lon": 28.2460, "size": "hub"},
    {"code": "LOS", "name": "Murtala Muhammed International Airport", "city": "Lagos", "country": "Nigeria", "lat": 6.5774, "lon": 3.3212, "size": "large"},
    {"code": "JFK", "name": "John F. Kennedy International Airport", "city": "New York", "country": "USA", "lat": 40.6413, "lon": -73.7781, "size": "hub"},
    {"code": "LAX", "name": "Los Angeles International Airport", "city": "Los Angeles", "country": "USA", "lat": 33.9425, "lon": -118.4081, "size": "hub"},
    {"code": "ORD", "name": "O'Hare International Airport", "city": "Chicago", "country": "USA", "lat": 41.9742, "lon": -87.9073, "size": "hub"},
    {"code": "MIA", "name": "Miami International Airport", "city": "Miami", "country": "USA", "lat": 25.7959, "lon": -80.2870, "size": "large"},
    {"code": "YYZ", "name": "Toronto Pearson International Airport", "city": "Toronto", "country": "Canada", "lat": 43.6777, "lon": -79.6248, "size": "large"},
    {"code": "GRU", "name": "São Paulo Guarulhos International Airport", "city": "São Paulo", "country": "Brazil", "lat": -23.4356, "lon": -46.4731, "size": "hub"},
    {"code": "EZE", "name": "Ministro Pistarini International Airport", "city": "Buenos Aires", "country": "Argentina", "lat": -34.8222, "lon": -58.5358, "size": "large"}
  ]